header:
  stamp:
    sec: 206
    nanosec: 476000000
  frame_id: odom
child_frame_id: base_link
pose:
  pose:
    position:
      x: -1.999899996305629
      y: -0.5000169518667388
      z: 0.04999999940697117
    orientation:
      x: 1.4804767591648551e-08
      y: 1.4900273891911096e-09
      z: 0.0006146951046612515
      w: 0.9999998110749463
  covariance:
  - 1.0e-05
  - 0.0
  - 0.0
  - 0.0
  - 0.0
  - 0.0
  - 0.0
  - 1.0e-05
  - 0.0
  - 0.0
  - 0.0
  - 0.0
  - 0.0
  - 0.0
  - 1000000000000.0
  - 0.0
  - 0.0
  - 0.0
  - 0.0
  - 0.0
  - 0.0
  - 1000000000000.0
  - 0.0
  - 0.0
  - 0.0
  - 0.0
  - 0.0
  - 0.0
  - 1000000000000.0
  - 0.0
  - 0.0
  - 0.0
  - 0.0
  - 0.0
  - 0.0
  - 0.001
twist:
  twist:
    linear:
      x: -7.991652697307567e-11
      y: 9.169535830614482e-10
      z: 0.0
    angular:
      x: 0.0
      y: 0.0
      z: 1.047499762088485e-08
  covariance:
  - 1.0e-05
  - 0.0
  - 0.0
  - 0.0
  - 0.0
  - 0.0
  - 0.0
  - 1.0e-05
  - 0.0
  - 0.0
  - 0.0
  - 0.0
  - 0.0
  - 0.0
  - 1000000000000.0
  - 0.0
  - 0.0
  - 0.0
  - 0.0
  - 0.0
  - 0.0
  - 1000000000000.0
  - 0.0
  - 0.0
  - 0.0
  - 0.0
  - 0.0
  - 0.0
  - 1000000000000.0
  - 0.0
  - 0.0
  - 0.0
  - 0.0
  - 0.0
  - 0.0
  - 0.001
---
header:
  stamp:
    sec: 206
    nanosec: 486000000
  frame_id: odom
child_frame_id: base_link
pose:
  pose:
    position:
      x: -1.9998999963062951
      y: -0.5000169518576735
      z: 0.04999999940952814
    orientation:
      x: 1.4681001201888278e-08
      y: 1.4834442162656507e-09
      z: 0.0006146951565332802
      w: 0.9999998110749144
  covariance:
  - 1.0e-05
  - 0.0
  - 0.0
  - 0.0
  - 0.0
  - 0.0
  - 0.0
  - 1.0e-05
  - 0.0
  - 0.0
  - 0.0
  - 0.0
  - 0.0
  - 0.0
  - 1000000000000.0
  - 0.0
  - 0.0
  - 0.0
  - 0.0
  - 0.0
  - 0.0
  - 1000000000000.0
  - 0.0
  - 0.0
  - 0.0
  - 0.0
  - 0.0
  - 0.0
  - 1000000000000.0
  - 0.0
  - 0.0
  - 0.0
  - 0.0
  - 0.0
  - 0.0
  - 0.001
twist:
  twist:
    linear:
      x: -7.861552013202086e-11
      y: 9.007099169354709e-10
      z: 0.0
    angular:
      x: 0.0
      y: 0.0
      z: 1.0292030600343863e-08
  covariance:
  - 1.0e-05
  - 0.0
  - 0.0
  - 0.0
  - 0.0
  - 0.0
  - 0.0
  - 1.0e-05
  - 0.0
  - 0.0
  - 0.0
  - 0.0
  - 0.0
  - 0.0
  - 1000000000000.0
  - 0.0
  - 0.0
  - 0.0
  - 0.0
  - 0.0
  - 0.0
  - 1000000000000.0
  - 0.0
  - 0.0
  - 0.0
  - 0.0
  - 0.0
  - 0.0
  - 1000000000000.0
  - 0.0
  - 0.0
  - 0.0
  - 0.0
  - 0.0
  - 0.0
  - 0.001
---
header:
  stamp:
    sec: 206
    nanosec: 489000000
  frame_id: odom
child_frame_id: base_link
pose:
  pose:
    position:
      x: -5.277201605081285
      y: 5.2949661967966595
      z: 0.0
    orientation:
      x: 0.0
      y: 0.0
      z: 0.0006147335278112712
      w: 0.9999998110513271
  covariance:
  - 73038.75489675112
  - 3.6412973334258104e-13
  - 0.0
  - 0.0
  - 0.0
  - -4.845262205526607e-19
  - 1.0569427276484927e-12
  - 73038.75489675112
  - 0.0
  - 0.0
  - 0.0
  - -3.544906353014186e-19
  - 0.0
  - 0.0
  - 3.329637837393048e-07
  - 1.1868808323287987e-16
  - 8.661114571226225e-17
  - 0.0
  - 0.0
  - 0.0
  - 1.186880832328799e-16
  - 3.325958666370784e-07
  - -2.7817000851170366e-23
  - 0.0
  - 0.0
  - 0.0
  - 8.661114571226232e-17
  - -2.781700085120552e-23
  - 3.325958666370784e-07
  - 0.0
  - -4.845262205526609e-19
  - -3.544906353014186e-19
  - 0.0
  - 0.0
  - 0.0
  - 9.999966666889e-10
twist:
  twist:
    linear:
      x: -0.02122319238255627
      y: 0.02907069289347838
      z: 0.0
    angular:
      x: 0.0
      y: 0.0
      z: -6.657223462038684e-05
  covariance:
  - 5.154991682260135
  - 0.0
  - 0.0
  - 0.0
  - 0.0
  - 0.0
  - 0.0
  - 5.154991682260135
  - 0.0
  - 0.0
  - 0.0
  - 0.0
  - 0.0
  - 0.0
  - 3.3277962197217804e-07
  - 3.195097328936677e-26
  - 2.3315822513996917e-26
  - 0.0
  - 0.0
  - 0.0
  - 3.1950973289366755e-26
  - 3.3114025595099577e-07
  - -2.9320106095120655e-32
  - 0.0
  - 0.0
  - 0.0
  - 2.3315822513996923e-26
  - -2.932010609515795e-32
  - 3.3114025595099577e-07
  - 0.0
  - 0.0
  - 0.0
  - 0.0
  - 0.0
  - 0.0
  - 3.9984012787214296e-08
---
header:
  stamp:
    sec: 206
    nanosec: 496000000
  frame_id: odom
child_frame_id: base_link
pose:
  pose:
    position:
      x: -1.999899996306948
      y: -0.500016951848769
      z: 0.049999999412034896
    orientation:
      x: 1.4559423430206301e-08
      y: 1.4769901604399912e-09
      z: 0.0006146952074994249
      w: 0.9999998110748831
  covariance:
  - 1.0e-05
  - 0.0
  - 0.0
  - 0.0
  - 0.0
  - 0.0
  - 0.0
  - 1.0e-05
  - 0.0
  - 0.0
  - 0.0
  - 0.0
  - 0.0
  - 0.0
  - 1000000000000.0
  - 0.0
  - 0.0
  - 0.0
  - 0.0
  - 0.0
  - 0.0
  - 1000000000000.0
  - 0.0
  - 0.0
  - 0.0
  - 0.0
  - 0.0
  - 0.0
  - 1000000000000.0
  - 0.0
  - 0.0
  - 0.0
  - 0.0
  - 0.0
  - 0.0
  - 0.001
twist:
  twist:
    linear:
      x: -7.733722092666207e-11
      y: 8.847569603172126e-10
      z: 0.0
    angular:
      x: 0.0
      y: 0.0
      z: 1.0112310091928955e-08
  covariance:
  - 1.0e-05
  - 0.0
  - 0.0
  - 0.0
  - 0.0
  - 0.0
  - 0.0
  - 1.0e-05
  - 0.0
  - 0.0
  - 0.0
  - 0.0
  - 0.0
  - 0.0
  - 1000000000000.0
  - 0.0
  - 0.0
  - 0.0
  - 0.0
  - 0.0
  - 0.0
  - 1000000000000.0
  - 0.0
  - 0.0
  - 0.0
  - 0.0
  - 0.0
  - 0.0
  - 1000000000000.0
  - 0.0
  - 0.0
  - 0.0
  - 0.0
  - 0.0
  - 0.0
  - 0.001
---
header:
  stamp:
    sec: 206
    nanosec: 506000000
  frame_id: odom
child_frame_id: base_link
pose:
  pose:
    position:
      x: -1.9998999963075879
      y: -0.5000169518400226
      z: 0.04999999941449244
    orientation:
      x: 1.4439995400070568e-08
      y: 1.4706626647854415e-09
      z: 0.00061469525757578
      w: 0.9999998110748523
  covariance:
  - 1.0e-05
  - 0.0
  - 0.0
  - 0.0
  - 0.0
  - 0.0
  - 0.0
  - 1.0e-05
  - 0.0
  - 0.0
  - 0.0
  - 0.0
  - 0.0
  - 0.0
  - 1000000000000.0
  - 0.0
  - 0.0
  - 0.0
  - 0.0
  - 0.0
  - 0.0
  - 1000000000000.0
  - 0.0
  - 0.0
  - 0.0
  - 0.0
  - 0.0
  - 0.0
  - 1000000000000.0
  - 0.0
  - 0.0
  - 0.0
  - 0.0
  - 0.0
  - 0.0
  - 0.001
twist:
  twist:
    linear:
      x: -7.608646259379383e-11
      y: 8.690870811282944e-10
      z: 0.0
    angular:
      x: 0.0
      y: 0.0
      z: 9.93578489197465e-09
  covariance:
  - 1.0e-05
  - 0.0
  - 0.0
  - 0.0
  - 0.0
  - 0.0
  - 0.0
  - 1.0e-05
  - 0.0
  - 0.0
  - 0.0
  - 0.0
  - 0.0
  - 0.0
  - 1000000000000.0
  - 0.0
  - 0.0
  - 0.0
  - 0.0
  - 0.0
  - 0.0
  - 1000000000000.0
  - 0.0
  - 0.0
  - 0.0
  - 0.0
  - 0.0
  - 0.0
  - 1000000000000.0
  - 0.0
  - 0.0
  - 0.0
  - 0.0
  - 0.0
  - 0.0
  - 0.001
---
header:
  stamp:
    sec: 206
    nanosec: 516000000
  frame_id: odom
child_frame_id: base_link
pose:
  pose:
    position:
      x: -1.9998999963082154
      y: -0.5000169518314312
      z: 0.049999999416901725
    orientation:
      x: 1.4322679068068212e-08
      y: 1.464459266005341e-09
      z: 0.0006146953067781346
      w: 0.999999811074822
  covariance:
  - 1.0e-05
  - 0.0
  - 0.0
  - 0.0
  - 0.0
  - 0.0
  - 0.0
  - 1.0e-05
  - 0.0
  - 0.0
  - 0.0
  - 0.0
  - 0.0
  - 0.0
  - 1000000000000.0
  - 0.0
  - 0.0
  - 0.0
  - 0.0
  - 0.0
  - 0.0
  - 1000000000000.0
  - 0.0
  - 0.0
  - 0.0
  - 0.0
  - 0.0
  - 0.0
  - 1000000000000.0
  - 0.0
  - 0.0
  - 0.0
  - 0.0
  - 0.0
  - 0.0
  - 0.001
twist:
  twist:
    linear:
      x: -7.486133294794549e-11
      y: 8.5369081873621e-10
      z: 0.0
    angular:
      x: 0.0
      y: 0.0
      z: 9.762391932624375e-09
  covariance:
  - 1.0e-05
  - 0.0
  - 0.0
  - 0.0
  - 0.0
  - 0.0
  - 0.0
  - 1.0e-05
  - 0.0
  - 0.0
  - 0.0
  - 0.0
  - 0.0
  - 0.0
  - 1000000000000.0
  - 0.0
  - 0.0
  - 0.0
  - 0.0
  - 0.0
  - 0.0
  - 1000000000000.0
  - 0.0
  - 0.0
  - 0.0
  - 0.0
  - 0.0
  - 0.0
  - 1000000000000.0
  - 0.0
  - 0.0
  - 0.0
  - 0.0
  - 0.0
  - 0.0
  - 0.001
---
header:
  stamp:
    sec: 206
    nanosec: 526000000
  frame_id: odom
child_frame_id: base_link
pose:
  pose:
    position:
      x: -1.9998999963088306
      y: -0.5000169518229922
      z: 0.0499999994192637
    orientation:
      x: 1.4207436920671382e-08
      y: 1.4583775213216675e-09
      z: 0.0006146953551220304
      w: 0.9999998110747923
  covariance:
  - 1.0e-05
  - 0.0
  - 0.0
  - 0.0
  - 0.0
  - 0.0
  - 0.0
  - 1.0e-05
  - 0.0
  - 0.0
  - 0.0
  - 0.0
  - 0.0
  - 0.0
  - 1000000000000.0
  - 0.0
  - 0.0
  - 0.0
  - 0.0
  - 0.0
  - 0.0
  - 1000000000000.0
  - 0.0
  - 0.0
  - 0.0
  - 0.0
  - 0.0
  - 0.0
  - 1000000000000.0
  - 0.0
  - 0.0
  - 0.0
  - 0.0
  - 0.0
  - 0.0
  - 0.001
twist:
  twist:
    linear:
      x: -7.365775460918588e-11
      y: 8.385669028901577e-10
      z: 0.0
    angular:
      x: 0.0
      y: 0.0
      z: 9.592080414829997e-09
  covariance:
  - 1.0e-05
  - 0.0
  - 0.0
  - 0.0
  - 0.0
  - 0.0
  - 0.0
  - 1.0e-05
  - 0.0
  - 0.0
  - 0.0
  - 0.0
  - 0.0
  - 0.0
  - 1000000000000.0
  - 0.0
  - 0.0
  - 0.0
  - 0.0
  - 0.0
  - 0.0
  - 1000000000000.0
  - 0.0
  - 0.0
  - 0.0
  - 0.0
  - 0.0
  - 0.0
  - 1000000000000.0
  - 0.0
  - 0.0
  - 0.0
  - 0.0
  - 0.0
  - 0.0
  - 0.001
---
header:
  stamp:
    sec: 206
    nanosec: 536000000
  frame_id: odom
child_frame_id: base_link
pose:
  pose:
    position:
      x: -1.9998999963094335
      y: -0.5000169518147031
      z: 0.0499999994215793
    orientation:
      x: 1.4094232402888869e-08
      y: 1.4524150762240428e-09
      z: 0.0006146954026226925
      w: 0.9999998110747631
  covariance:
  - 1.0e-05
  - 0.0
  - 0.0
  - 0.0
  - 0.0
  - 0.0
  - 0.0
  - 1.0e-05
  - 0.0
  - 0.0
  - 0.0
  - 0.0
  - 0.0
  - 0.0
  - 1000000000000.0
  - 0.0
  - 0.0
  - 0.0
  - 0.0
  - 0.0
  - 0.0
  - 1000000000000.0
  - 0.0
  - 0.0
  - 0.0
  - 0.0
  - 0.0
  - 0.0
  - 1000000000000.0
  - 0.0
  - 0.0
  - 0.0
  - 0.0
  - 0.0
  - 0.0
  - 0.001
twist:
  twist:
    linear:
      x: -7.247841468646268e-11
      y: 8.237114975646757e-10
      z: 0.0
    angular:
      x: 0.0
      y: 0.0
      z: 9.424788154124345e-09
  covariance:
  - 1.0e-05
  - 0.0
  - 0.0
  - 0.0
  - 0.0
  - 0.0
  - 0.0
  - 1.0e-05
  - 0.0
  - 0.0
  - 0.0
  - 0.0
  - 0.0
  - 0.0
  - 1000000000000.0
  - 0.0
  - 0.0
  - 0.0
  - 0.0
  - 0.0
  - 0.0
  - 1000000000000.0
  - 0.0
  - 0.0
  - 0.0
  - 0.0
  - 0.0
  - 0.0
  - 1000000000000.0
  - 0.0
  - 0.0
  - 0.0
  - 0.0
  - 0.0
  - 0.0
  - 0.001
---
header:
  stamp:
    sec: 206
    nanosec: 546000000
  frame_id: odom
child_frame_id: base_link
pose:
  pose:
    position:
      x: -1.9998999964783812
      y: -0.5000169074030493
      z: 0.04999999998513402
    orientation:
      x: -1.8254765419833707e-07
      y: -1.121924395247024e-10
      z: 0.0006147004763972902
      w: 0.9999998110716277
  covariance:
  - 1.0e-05
  - 0.0
  - 0.0
  - 0.0
  - 0.0
  - 0.0
  - 0.0
  - 1.0e-05
  - 0.0
  - 0.0
  - 0.0
  - 0.0
  - 0.0
  - 0.0
  - 1000000000000.0
  - 0.0
  - 0.0
  - 0.0
  - 0.0
  - 0.0
  - 0.0
  - 1000000000000.0
  - 0.0
  - 0.0
  - 0.0
  - 0.0
  - 0.0
  - 0.0
  - 1000000000000.0
  - 0.0
  - 0.0
  - 0.0
  - 0.0
  - 0.0
  - 0.0
  - 0.001
twist:
  twist:
    linear:
      x: -7.586870378653202e-07
      y: 1.902967661982728e-05
      z: 0.0
    angular:
      x: 0.0
      y: 0.0
      z: 5.7752219155768865e-12
  covariance:
  - 1.0e-05
  - 0.0
  - 0.0
  - 0.0
  - 0.0
  - 0.0
  - 0.0
  - 1.0e-05
  - 0.0
  - 0.0
  - 0.0
  - 0.0
  - 0.0
  - 0.0
  - 1000000000000.0
  - 0.0
  - 0.0
  - 0.0
  - 0.0
  - 0.0
  - 0.0
  - 1000000000000.0
  - 0.0
  - 0.0
  - 0.0
  - 0.0
  - 0.0
  - 0.0
  - 1000000000000.0
  - 0.0
  - 0.0
  - 0.0
  - 0.0
  - 0.0
  - 0.0
  - 0.001
---
header:
  stamp:
    sec: 206
    nanosec: 556000000
  frame_id: odom
child_frame_id: base_link
pose:
  pose:
    position:
      x: -1.9998999964379047
      y: -0.5000169377141429
      z: 0.04999999998529229
    orientation:
      x: 1.207490661154266e-07
      y: 1.0589698055336093e-10
      z: 0.00061470019211261
      w: 0.9999998110718119
  covariance:
  - 1.0e-05
  - 0.0
  - 0.0
  - 0.0
  - 0.0
  - 0.0
  - 0.0
  - 1.0e-05
  - 0.0
  - 0.0
  - 0.0
  - 0.0
  - 0.0
  - 0.0
  - 1000000000000.0
  - 0.0
  - 0.0
  - 0.0
  - 0.0
  - 0.0
  - 0.0
  - 1000000000000.0
  - 0.0
  - 0.0
  - 0.0
  - 0.0
  - 0.0
  - 0.0
  - 1000000000000.0
  - 0.0
  - 0.0
  - 0.0
  - 0.0
  - 0.0
  - 0.0
  - 0.001
twist:
  twist:
    linear:
      x: 3.148030876465204e-09
      y: -2.6359279342577925e-05
      z: 0.0
    angular:
      x: 0.0
      y: 0.0
      z: 5.858491003666633e-09
  covariance:
  - 1.0e-05
  - 0.0
  - 0.0
  - 0.0
  - 0.0
  - 0.0
  - 0.0
  - 1.0e-05
  - 0.0
  - 0.0
  - 0.0
  - 0.0
  - 0.0
  - 0.0
  - 1000000000000.0
  - 0.0
  - 0.0
  - 0.0
  - 0.0
  - 0.0
  - 0.0
  - 1000000000000.0
  - 0.0
  - 0.0
  - 0.0
  - 0.0
  - 0.0
  - 0.0
  - 1000000000000.0
  - 0.0
  - 0.0
  - 0.0
  - 0.0
  - 0.0
  - 0.0
  - 0.001
---
header:
  stamp:
    sec: 206
    nanosec: 566000000
  frame_id: odom
child_frame_id: base_link
pose:
  pose:
    position:
      x: -1.9998999957940162
      y: -0.5000169239674246
      z: 0.04999999739146224
    orientation:
      x: -1.644303553933565e-08
      y: 6.628803272843038e-09
      z: 0.0006146997865048765
      w: 0.9999998110720683
  covariance:
  - 1.0e-05
  - 0.0
  - 0.0
  - 0.0
  - 0.0
  - 0.0
  - 0.0
  - 1.0e-05
  - 0.0
  - 0.0
  - 0.0
  - 0.0
  - 0.0
  - 0.0
  - 1000000000000.0
  - 0.0
  - 0.0
  - 0.0
  - 0.0
  - 0.0
  - 0.0
  - 1000000000000.0
  - 0.0
  - 0.0
  - 0.0
  - 0.0
  - 0.0
  - 0.0
  - 1000000000000.0
  - 0.0
  - 0.0
  - 0.0
  - 0.0
  - 0.0
  - 0.0
  - 0.001
twist:
  twist:
    linear:
      x: 6.607546170324055e-07
      y: 1.319903415731823e-05
      z: 0.0
    angular:
      x: 0.0
      y: 0.0
      z: -2.0599196862152734e-07
  covariance:
  - 1.0e-05
  - 0.0
  - 0.0
  - 0.0
  - 0.0
  - 0.0
  - 0.0
  - 1.0e-05
  - 0.0
  - 0.0
  - 0.0
  - 0.0
  - 0.0
  - 0.0
  - 1000000000000.0
  - 0.0
  - 0.0
  - 0.0
  - 0.0
  - 0.0
  - 0.0
  - 1000000000000.0
  - 0.0
  - 0.0
  - 0.0
  - 0.0
  - 0.0
  - 0.0
  - 1000000000000.0
  - 0.0
  - 0.0
  - 0.0
  - 0.0
  - 0.0
  - 0.0
  - 0.001
---
header:
  stamp:
    sec: 206
    nanosec: 570000000
  frame_id: odom
child_frame_id: base_link
pose:
  pose:
    position:
      x: -5.278916476058618
      y: 5.297317557212561
      z: 0.0
    orientation:
      x: 0.0
      y: 0.0
      z: 0.0006147380318009339
      w: 0.9999998110485583
  covariance:
  - 73124.87294278646
  - 3.634184989954511e-13
  - 0.0
  - 0.0
  - 0.0
  - -4.845232115588818e-19
  - 1.0581583328466155e-12
  - 73124.87294278646
  - 0.0
  - 0.0
  - 0.0
  - -3.532803844120027e-19
  - 0.0
  - 0.0
  - 4.991694329584798e-07
  - 3.9880626555269897e-16
  - 2.9003124938560148e-16
  - 0.0
  - 0.0
  - 0.0
  - 3.9880626555269887e-16
  - 4.983443528419039e-07
  - -1.3926334840651315e-22
  - 0.0
  - 0.0
  - 0.0
  - 2.9003124938560148e-16
  - -1.3926334840654353e-22
  - 4.98344352841904e-07
  - 0.0
  - -4.84523211558882e-19
  - -3.5328038441200277e-19
  - 0.0
  - 0.0
  - 0.0
  - 9.999966666889e-10
twist:
  twist:
    linear:
      x: -0.0211630237454923
      y: 0.029100159561105354
      z: 0.0
    angular:
      x: 0.0
      y: 0.0
      z: 0.0006284064018861679
  covariance:
  - 5.157017015845484
  - 0.0
  - 0.0
  - 0.0
  - 0.0
  - 0.0
  - 0.0
  - 5.157017015845484
  - 0.0
  - 0.0
  - 0.0
  - 0.0
  - 0.0
  - 0.0
  - 4.987562112851172e-07
  - 2.378528366925926e-25
  - 1.7297811321622562e-25
  - 0.0
  - 0.0
  - 0.0
  - 2.378528366925926e-25
  - 4.95097567960022e-07
  - -3.218305537680358e-31
  - 0.0
  - 0.0
  - 0.0
  - 1.7297811321622562e-25
  - -3.218305537681058e-31
  - 4.95097567960022e-07
  - 0.0
  - 0.0
  - 0.0
  - 0.0
  - 0.0
  - 0.0
  - 3.99840127872143e-08
---
header:
  stamp:
    sec: 206
    nanosec: 576000000
  frame_id: odom
child_frame_id: base_link
pose:
  pose:
    position:
      x: -1.9998999964744568
      y: -0.5000169104639036
      z: 0.049999999985129794
    orientation:
      x: -1.5127359747487566e-07
      y: -9.297070948249347e-11
      z: 0.0006146994705546389
      w: 0.9999998110722511
  covariance:
  - 1.0e-05
  - 0.0
  - 0.0
  - 0.0
  - 0.0
  - 0.0
  - 0.0
  - 1.0e-05
  - 0.0
  - 0.0
  - 0.0
  - 0.0
  - 0.0
  - 0.0
  - 1000000000000.0
  - 0.0
  - 0.0
  - 0.0
  - 0.0
  - 0.0
  - 0.0
  - 1000000000000.0
  - 0.0
  - 0.0
  - 0.0
  - 0.0
  - 0.0
  - 0.0
  - 1000000000000.0
  - 0.0
  - 0.0
  - 0.0
  - 0.0
  - 0.0
  - 0.0
  - 0.001
twist:
  twist:
    linear:
      x: -6.61236730576082e-07
      y: 1.3262027265292584e-05
      z: 0.0
    angular:
      x: 0.0
      y: 0.0
      z: 3.5078810224849327e-12
  covariance:
  - 1.0e-05
  - 0.0
  - 0.0
  - 0.0
  - 0.0
  - 0.0
  - 0.0
  - 1.0e-05
  - 0.0
  - 0.0
  - 0.0
  - 0.0
  - 0.0
  - 0.0
  - 1000000000000.0
  - 0.0
  - 0.0
  - 0.0
  - 0.0
  - 0.0
  - 0.0
  - 1000000000000.0
  - 0.0
  - 0.0
  - 0.0
  - 0.0
  - 0.0
  - 0.0
  - 1000000000000.0
  - 0.0
  - 0.0
  - 0.0
  - 0.0
  - 0.0
  - 0.0
  - 0.001
---
header:
  stamp:
    sec: 206
    nanosec: 586000000
  frame_id: odom
child_frame_id: base_link
pose:
  pose:
    position:
      x: -1.9998999964390147
      y: -0.5000169367324366
      z: 0.04999999998529922
    orientation:
      x: 1.11623364950066e-07
      y: 9.958529119660826e-11
      z: 0.0006146991459192131
      w: 0.9999998110724561
  covariance:
  - 1.0e-05
  - 0.0
  - 0.0
  - 0.0
  - 0.0
  - 0.0
  - 0.0
  - 1.0e-05
  - 0.0
  - 0.0
  - 0.0
  - 0.0
  - 0.0
  - 0.0
  - 1000000000000.0
  - 0.0
  - 0.0
  - 0.0
  - 0.0
  - 0.0
  - 0.0
  - 1000000000000.0
  - 0.0
  - 0.0
  - 0.0
  - 0.0
  - 0.0
  - 0.0
  - 1000000000000.0
  - 0.0
  - 0.0
  - 0.0
  - 0.0
  - 0.0
  - 0.0
  - 0.001
twist:
  twist:
    linear:
      x: 3.078537128240972e-09
      y: -2.6391828965090784e-05
      z: 0.0
    angular:
      x: 0.0
      y: 0.0
      z: -5.35877284185604e-09
  covariance:
  - 1.0e-05
  - 0.0
  - 0.0
  - 0.0
  - 0.0
  - 0.0
  - 0.0
  - 1.0e-05
  - 0.0
  - 0.0
  - 0.0
  - 0.0
  - 0.0
  - 0.0
  - 1000000000000.0
  - 0.0
  - 0.0
  - 0.0
  - 0.0
  - 0.0
  - 0.0
  - 1000000000000.0
  - 0.0
  - 0.0
  - 0.0
  - 0.0
  - 0.0
  - 0.0
  - 1000000000000.0
  - 0.0
  - 0.0
  - 0.0
  - 0.0
  - 0.0
  - 0.0
  - 0.001
---
header:
  stamp:
    sec: 206
    nanosec: 596000000
  frame_id: odom
child_frame_id: base_link
pose:
  pose:
    position:
      x: -1.999899028312885
      y: -0.5000171093548822
      z: 0.04999997044490198
    orientation:
      x: -1.603555430548994e-08
      y: 1.25329069090315e-07
      z: 0.0006050351922181865
      w: 0.9999998169661835
  covariance:
  - 1.0e-05
  - 0.0
  - 0.0
  - 0.0
  - 0.0
  - 0.0
  - 0.0
  - 1.0e-05
  - 0.0
  - 0.0
  - 0.0
  - 0.0
  - 0.0
  - 0.0
  - 1000000000000.0
  - 0.0
  - 0.0
  - 0.0
  - 0.0
  - 0.0
  - 0.0
  - 1000000000000.0
  - 0.0
  - 0.0
  - 0.0
  - 0.0
  - 0.0
  - 0.0
  - 1000000000000.0
  - 0.0
  - 0.0
  - 0.0
  - 0.0
  - 0.0
  - 0.0
  - 0.001
twist:
  twist:
    linear:
      x: 1.817322900780152e-05
      y: 1.6523531834292898e-05
      z: 0.0
    angular:
      x: 0.0
      y: 0.0
      z: 2.074494665299146e-05
  covariance:
  - 1.0e-05
  - 0.0
  - 0.0
  - 0.0
  - 0.0
  - 0.0
  - 0.0
  - 1.0e-05
  - 0.0
  - 0.0
  - 0.0
  - 0.0
  - 0.0
  - 0.0
  - 1000000000000.0
  - 0.0
  - 0.0
  - 0.0
  - 0.0
  - 0.0
  - 0.0
  - 1000000000000.0
  - 0.0
  - 0.0
  - 0.0
  - 0.0
  - 0.0
  - 0.0
  - 1000000000000.0
  - 0.0
  - 0.0
  - 0.0
  - 0.0
  - 0.0
  - 0.0
  - 0.001
---
header:
  stamp:
    sec: 206
    nanosec: 606000000
  frame_id: odom
child_frame_id: base_link
pose:
  pose:
    position:
      x: -1.9998991378704194
      y: -0.5000172037356795
      z: 0.04999999663346469
    orientation:
      x: -8.355510200565487e-08
      y: -1.5128889488465934e-09
      z: 0.0006294877858006466
      w: 0.9999998018725406
  covariance:
  - 1.0e-05
  - 0.0
  - 0.0
  - 0.0
  - 0.0
  - 0.0
  - 0.0
  - 1.0e-05
  - 0.0
  - 0.0
  - 0.0
  - 0.0
  - 0.0
  - 0.0
  - 1000000000000.0
  - 0.0
  - 0.0
  - 0.0
  - 0.0
  - 0.0
  - 0.0
  - 1000000000000.0
  - 0.0
  - 0.0
  - 0.0
  - 0.0
  - 0.0
  - 0.0
  - 1000000000000.0
  - 0.0
  - 0.0
  - 0.0
  - 0.0
  - 0.0
  - 0.0
  - 0.001
twist:
  twist:
    linear:
      x: 0.00012317284385680136
      y: -0.0003210809209211047
      z: 0.0
    angular:
      x: 0.0
      y: 0.0
      z: 0.0035382426008848922
  covariance:
  - 1.0e-05
  - 0.0
  - 0.0
  - 0.0
  - 0.0
  - 0.0
  - 0.0
  - 1.0e-05
  - 0.0
  - 0.0
  - 0.0
  - 0.0
  - 0.0
  - 0.0
  - 1000000000000.0
  - 0.0
  - 0.0
  - 0.0
  - 0.0
  - 0.0
  - 0.0
  - 1000000000000.0
  - 0.0
  - 0.0
  - 0.0
  - 0.0
  - 0.0
  - 0.0
  - 1000000000000.0
  - 0.0
  - 0.0
  - 0.0
  - 0.0
  - 0.0
  - 0.0
  - 0.001
---
header:
  stamp:
    sec: 206
    nanosec: 616000000
  frame_id: odom
child_frame_id: base_link
pose:
  pose:
    position:
      x: -1.9998994474754264
      y: -0.5000168512173843
      z: 0.04999999846791954
    orientation:
      x: -2.8835066377258735e-08
      y: 3.8111339218448216e-09
      z: 0.0006303239121044961
      w: 0.9999998013458629
  covariance:
  - 1.0e-05
  - 0.0
  - 0.0
  - 0.0
  - 0.0
  - 0.0
  - 0.0
  - 1.0e-05
  - 0.0
  - 0.0
  - 0.0
  - 0.0
  - 0.0
  - 0.0
  - 1000000000000.0
  - 0.0
  - 0.0
  - 0.0
  - 0.0
  - 0.0
  - 0.0
  - 1000000000000.0
  - 0.0
  - 0.0
  - 0.0
  - 0.0
  - 0.0
  - 0.0
  - 1000000000000.0
  - 0.0
  - 0.0
  - 0.0
  - 0.0
  - 0.0
  - 0.0
  - 0.001
twist:
  twist:
    linear:
      x: 9.250533997322235e-11
      y: 3.1040766542668134e-07
      z: 0.0
    angular:
      x: 0.0
      y: 0.0
      z: -1.0168203369050999e-07
  covariance:
  - 1.0e-05
  - 0.0
  - 0.0
  - 0.0
  - 0.0
  - 0.0
  - 0.0
  - 1.0e-05
  - 0.0
  - 0.0
  - 0.0
  - 0.0
  - 0.0
  - 0.0
  - 1000000000000.0
  - 0.0
  - 0.0
  - 0.0
  - 0.0
  - 0.0
  - 0.0
  - 1000000000000.0
  - 0.0
  - 0.0
  - 0.0
  - 0.0
  - 0.0
  - 0.0
  - 1000000000000.0
  - 0.0
  - 0.0
  - 0.0
  - 0.0
  - 0.0
  - 0.0
  - 0.001
---
header:
  stamp:
    sec: 206
    nanosec: 626000000
  frame_id: odom
child_frame_id: base_link
pose:
  pose:
    position:
      x: -1.9998994474795022
      y: -0.500016849603648
      z: 0.04999999848735551
    orientation:
      x: -4.478637972995415e-08
      y: 3.780194962098444e-09
      z: 0.0006303234634667255
      w: 0.9999998013461452
  covariance:
  - 1.0e-05
  - 0.0
  - 0.0
  - 0.0
  - 0.0
  - 0.0
  - 0.0
  - 1.0e-05
  - 0.0
  - 0.0
  - 0.0
  - 0.0
  - 0.0
  - 0.0
  - 1000000000000.0
  - 0.0
  - 0.0
  - 0.0
  - 0.0
  - 0.0
  - 0.0
  - 1000000000000.0
  - 0.0
  - 0.0
  - 0.0
  - 0.0
  - 0.0
  - 0.0
  - 1000000000000.0
  - 0.0
  - 0.0
  - 0.0
  - 0.0
  - 0.0
  - 0.0
  - 0.001
twist:
  twist:
    linear:
      x: -3.868661817676848e-10
      y: 4.342201099294944e-08
      z: 0.0
    angular:
      x: 0.0
      y: 0.0
      z: -8.2885693609485e-08
  covariance:
  - 1.0e-05
  - 0.0
  - 0.0
  - 0.0
  - 0.0
  - 0.0
  - 0.0
  - 1.0e-05
  - 0.0
  - 0.0
  - 0.0
  - 0.0
  - 0.0
  - 0.0
  - 1000000000000.0
  - 0.0
  - 0.0
  - 0.0
  - 0.0
  - 0.0
  - 0.0
  - 1000000000000.0
  - 0.0
  - 0.0
  - 0.0
  - 0.0
  - 0.0
  - 0.0
  - 1000000000000.0
  - 0.0
  - 0.0
  - 0.0
  - 0.0
  - 0.0
  - 0.0
  - 0.001
---
header:
  stamp:
    sec: 206
    nanosec: 636000000
  frame_id: odom
child_frame_id: base_link
pose:
  pose:
    position:
      x: -1.999899447484022
      y: -0.5000168494948865
      z: 0.049999998508060535
    orientation:
      x: -4.5671044441125197e-08
      y: 3.735301094422785e-09
      z: 0.0006303230705586817
      w: 0.9999998013463927
  covariance:
  - 1.0e-05
  - 0.0
  - 0.0
  - 0.0
  - 0.0
  - 0.0
  - 0.0
  - 1.0e-05
  - 0.0
  - 0.0
  - 0.0
  - 0.0
  - 0.0
  - 0.0
  - 1000000000000.0
  - 0.0
  - 0.0
  - 0.0
  - 0.0
  - 0.0
  - 0.0
  - 1000000000000.0
  - 0.0
  - 0.0
  - 0.0
  - 0.0
  - 0.0
  - 0.0
  - 1000000000000.0
  - 0.0
  - 0.0
  - 0.0
  - 0.0
  - 0.0
  - 0.0
  - 0.001
twist:
  twist:
    linear:
      x: -4.853297688616528e-10
      y: -1.7251180631314374e-09
      z: 0.0
    angular:
      x: 0.0
      y: 0.0
      z: -7.600028853333765e-08
  covariance:
  - 1.0e-05
  - 0.0
  - 0.0
  - 0.0
  - 0.0
  - 0.0
  - 0.0
  - 1.0e-05
  - 0.0
  - 0.0
  - 0.0
  - 0.0
  - 0.0
  - 0.0
  - 1000000000000.0
  - 0.0
  - 0.0
  - 0.0
  - 0.0
  - 0.0
  - 0.0
  - 1000000000000.0
  - 0.0
  - 0.0
  - 0.0
  - 0.0
  - 0.0
  - 0.0
  - 1000000000000.0
  - 0.0
  - 0.0
  - 0.0
  - 0.0
  - 0.0
  - 0.0
  - 0.001
---
header:
  stamp:
    sec: 206
    nanosec: 646000000
  frame_id: odom
child_frame_id: base_link
pose:
  pose:
    position:
      x: -1.9998994474888254
      y: -0.5000168495464843
      z: 0.04999999852835711
    orientation:
      x: -4.49491192598834e-08
      y: 3.686560553152258e-09
      z: 0.0006303226997914576
      w: 0.9999998013466264
  covariance:
  - 1.0e-05
  - 0.0
  - 0.0
  - 0.0
  - 0.0
  - 0.0
  - 0.0
  - 1.0e-05
  - 0.0
  - 0.0
  - 0.0
  - 0.0
  - 0.0
  - 0.0
  - 1000000000000.0
  - 0.0
  - 0.0
  - 0.0
  - 0.0
  - 0.0
  - 0.0
  - 1000000000000.0
  - 0.0
  - 0.0
  - 0.0
  - 0.0
  - 0.0
  - 0.0
  - 1000000000000.0
  - 0.0
  - 0.0
  - 0.0
  - 0.0
  - 0.0
  - 0.0
  - 0.001
twist:
  twist:
    linear:
      x: -5.069445692005685e-10
      y: -6.463965057446388e-09
      z: 0.0
    angular:
      x: 0.0
      y: 0.0
      z: -7.294675864211007e-08
  covariance:
  - 1.0e-05
  - 0.0
  - 0.0
  - 0.0
  - 0.0
  - 0.0
  - 0.0
  - 1.0e-05
  - 0.0
  - 0.0
  - 0.0
  - 0.0
  - 0.0
  - 0.0
  - 1000000000000.0
  - 0.0
  - 0.0
  - 0.0
  - 0.0
  - 0.0
  - 0.0
  - 1000000000000.0
  - 0.0
  - 0.0
  - 0.0
  - 0.0
  - 0.0
  - 0.0
  - 1000000000000.0
  - 0.0
  - 0.0
  - 0.0
  - 0.0
  - 0.0
  - 0.0
  - 0.001
---
header:
  stamp:
    sec: 206
    nanosec: 656000000
  frame_id: odom
child_frame_id: base_link
pose:
  pose:
    position:
      x: -1.9998994474936798
      y: -0.5000168496142574
      z: 0.049999998548253606
    orientation:
      x: -4.406686267922728e-08
      y: 3.6372144276772377e-09
      z: 0.0006303223403090983
      w: 0.9999998013468531
  covariance:
  - 1.0e-05
  - 0.0
  - 0.0
  - 0.0
  - 0.0
  - 0.0
  - 0.0
  - 1.0e-05
  - 0.0
  - 0.0
  - 0.0
  - 0.0
  - 0.0
  - 0.0
  - 1000000000000.0
  - 0.0
  - 0.0
  - 0.0
  - 0.0
  - 0.0
  - 0.0
  - 1000000000000.0
  - 0.0
  - 0.0
  - 0.0
  - 0.0
  - 0.0
  - 0.0
  - 1000000000000.0
  - 0.0
  - 0.0
  - 0.0
  - 0.0
  - 0.0
  - 0.0
  - 0.001
twist:
  twist:
    linear:
      x: -5.062578552768523e-10
      y: -6.869217732618031e-09
      z: 0.0
    angular:
      x: 0.0
      y: 0.0
      z: -7.113736849100374e-08
  covariance:
  - 1.0e-05
  - 0.0
  - 0.0
  - 0.0
  - 0.0
  - 0.0
  - 0.0
  - 1.0e-05
  - 0.0
  - 0.0
  - 0.0
  - 0.0
  - 0.0
  - 0.0
  - 1000000000000.0
  - 0.0
  - 0.0
  - 0.0
  - 0.0
  - 0.0
  - 0.0
  - 1000000000000.0
  - 0.0
  - 0.0
  - 0.0
  - 0.0
  - 0.0
  - 0.0
  - 1000000000000.0
  - 0.0
  - 0.0
  - 0.0
  - 0.0
  - 0.0
  - 0.0
  - 0.001
---
header:
  stamp:
    sec: 206
    nanosec: 661000000
  frame_id: odom
child_frame_id: base_link
pose:
  pose:
    position:
      x: -5.280868217342456
      y: 5.299978712991774
      z: 0.0
    orientation:
      x: 0.0
      y: 0.0
      z: 0.0006303605138032329
      w: 0.9999998013227915
  covariance:
  - 73221.70356426177
  - 3.625346659277032e-13
  - 0.0
  - 0.0
  - 0.0
  - -4.894608530155539e-19
  - 1.0596185277865972e-12
  - 73221.70356426177
  - 0.0
  - 0.0
  - 0.0
  - -3.587722497594752e-19
  - 0.0
  - 0.0
  - 3.329639879152374e-07
  - 1.7935555341909662e-16
  - 1.311195174864327e-16
  - 0.0
  - 0.0
  - 0.0
  - 1.7935555341909657e-16
  - 3.325966770567081e-07
  - -6.36728382235632e-23
  - 0.0
  - 0.0
  - 0.0
  - 1.3111951748643266e-16
  - -6.367283822342033e-23
  - 3.3259667705670813e-07
  - 0.0
  - -4.894608530155539e-19
  - -3.587722497594752e-19
  - 0.0
  - 0.0
  - 0.0
  - 9.999966666889e-10
twist:
  twist:
    linear:
      x: -0.021506252604759104
      y: 0.029537098217163424
      z: 0.0
    angular:
      x: 0.0
      y: 0.0
      z: -5.7382292630095476e-05
  covariance:
  - 5.1592924708266565
  - 0.0
  - 0.0
  - 0.0
  - 0.0
  - 0.0
  - 0.0
  - 5.1592924708266565
  - 0.0
  - 0.0
  - 0.0
  - 0.0
  - 0.0
  - 0.0
  - 3.327800795951031e-07
  - 1.0741078766983153e-25
  - 7.852363996321338e-26
  - 0.0
  - 0.0
  - 0.0
  - 1.0741078766983155e-25
  - 3.3114733016090206e-07
  - -1.4811443442933417e-31
  - 0.0
  - 0.0
  - 0.0
  - 7.852363996321336e-26
  - -1.4811443442898548e-31
  - 3.3114733016090206e-07
  - 0.0
  - 0.0
  - 0.0
  - 0.0
  - 0.0
  - 0.0
  - 3.99840127872143e-08
---
header:
  stamp:
    sec: 206
    nanosec: 666000000
  frame_id: odom
child_frame_id: base_link
pose:
  pose:
    position:
      x: -1.9998994474984841
      y: -0.5000168496827272
      z: 0.04999999856775786
    orientation:
      x: -4.318043996051311e-08
      y: 3.5883641158862223e-09
      z: 0.0006303219885567588
      w: 0.9999998013470747
  covariance:
  - 1.0e-05
  - 0.0
  - 0.0
  - 0.0
  - 0.0
  - 0.0
  - 0.0
  - 1.0e-05
  - 0.0
  - 0.0
  - 0.0
  - 0.0
  - 0.0
  - 0.0
  - 1000000000000.0
  - 0.0
  - 0.0
  - 0.0
  - 0.0
  - 0.0
  - 0.0
  - 1000000000000.0
  - 0.0
  - 0.0
  - 0.0
  - 0.0
  - 0.0
  - 0.0
  - 1000000000000.0
  - 0.0
  - 0.0
  - 0.0
  - 0.0
  - 0.0
  - 0.0
  - 0.001
twist:
  twist:
    linear:
      x: -4.991774736363587e-10
      y: -6.808529248782004e-09
      z: 0.0
    angular:
      x: 0.0
      y: 0.0
      z: -6.97413151035739e-08
  covariance:
  - 1.0e-05
  - 0.0
  - 0.0
  - 0.0
  - 0.0
  - 0.0
  - 0.0
  - 1.0e-05
  - 0.0
  - 0.0
  - 0.0
  - 0.0
  - 0.0
  - 0.0
  - 1000000000000.0
  - 0.0
  - 0.0
  - 0.0
  - 0.0
  - 0.0
  - 0.0
  - 1000000000000.0
  - 0.0
  - 0.0
  - 0.0
  - 0.0
  - 0.0
  - 0.0
  - 1000000000000.0
  - 0.0
  - 0.0
  - 0.0
  - 0.0
  - 0.0
  - 0.0
  - 0.001
---
header:
  stamp:
    sec: 206
    nanosec: 676000000
  frame_id: odom
child_frame_id: base_link
pose:
  pose:
    position:
      x: -1.9998994475032081
      y: -0.5000168497502325
      z: 0.04999999858687759
    orientation:
      x: -4.230686787067935e-08
      y: 3.5403361296943933e-09
      z: 0.0006303216433239054
      w: 0.9999998013472924
  covariance:
  - 1.0e-05
  - 0.0
  - 0.0
  - 0.0
  - 0.0
  - 0.0
  - 0.0
  - 1.0e-05
  - 0.0
  - 0.0
  - 0.0
  - 0.0
  - 0.0
  - 0.0
  - 1000000000000.0
  - 0.0
  - 0.0
  - 0.0
  - 0.0
  - 0.0
  - 0.0
  - 1000000000000.0
  - 0.0
  - 0.0
  - 0.0
  - 0.0
  - 0.0
  - 0.0
  - 1000000000000.0
  - 0.0
  - 0.0
  - 0.0
  - 0.0
  - 0.0
  - 0.0
  - 0.001
twist:
  twist:
    linear:
      x: -4.903711669070268e-10
      y: -6.698455201789367e-09
      z: 0.0
    angular:
      x: 0.0
      y: 0.0
      z: -6.849174898695959e-08
  covariance:
  - 1.0e-05
  - 0.0
  - 0.0
  - 0.0
  - 0.0
  - 0.0
  - 0.0
  - 1.0e-05
  - 0.0
  - 0.0
  - 0.0
  - 0.0
  - 0.0
  - 0.0
  - 1000000000000.0
  - 0.0
  - 0.0
  - 0.0
  - 0.0
  - 0.0
  - 0.0
  - 1000000000000.0
  - 0.0
  - 0.0
  - 0.0
  - 0.0
  - 0.0
  - 0.0
  - 1000000000000.0
  - 0.0
  - 0.0
  - 0.0
  - 0.0
  - 0.0
  - 0.0
  - 0.001
---
header:
  stamp:
    sec: 206
    nanosec: 686000000
  frame_id: odom
child_frame_id: base_link
pose:
  pose:
    position:
      x: -1.9998994475078424
      y: -0.5000168498166058
      z: 0.04999999860562037
    orientation:
      x: -4.144791104527467e-08
      y: 3.4932146129798965e-09
      z: 0.0006303213041534803
      w: 0.9999998013475063
  covariance:
  - 1.0e-05
  - 0.0
  - 0.0
  - 0.0
  - 0.0
  - 0.0
  - 0.0
  - 1.0e-05
  - 0.0
  - 0.0
  - 0.0
  - 0.0
  - 0.0
  - 0.0
  - 1000000000000.0
  - 0.0
  - 0.0
  - 0.0
  - 0.0
  - 0.0
  - 0.0
  - 1000000000000.0
  - 0.0
  - 0.0
  - 0.0
  - 0.0
  - 0.0
  - 0.0
  - 1000000000000.0
  - 0.0
  - 0.0
  - 0.0
  - 0.0
  - 0.0
  - 0.0
  - 0.001
twist:
  twist:
    linear:
      x: -4.811855156514451e-10
      y: -6.584446402045115e-09
      z: 0.0
    angular:
      x: 0.0
      y: 0.0
      z: -6.73028070511252e-08
  covariance:
  - 1.0e-05
  - 0.0
  - 0.0
  - 0.0
  - 0.0
  - 0.0
  - 0.0
  - 1.0e-05
  - 0.0
  - 0.0
  - 0.0
  - 0.0
  - 0.0
  - 0.0
  - 1000000000000.0
  - 0.0
  - 0.0
  - 0.0
  - 0.0
  - 0.0
  - 0.0
  - 1000000000000.0
  - 0.0
  - 0.0
  - 0.0
  - 0.0
  - 0.0
  - 0.0
  - 1000000000000.0
  - 0.0
  - 0.0
  - 0.0
  - 0.0
  - 0.0
  - 0.0
  - 0.001
---
header:
  stamp:
    sec: 206
    nanosec: 696000000
  frame_id: odom
child_frame_id: base_link
pose:
  pose:
    position:
      x: -1.9998994475123864
      y: -0.5000168498818442
      z: 0.049999998623993604
    orientation:
      x: -4.060358747104333e-08
      y: 3.4470112762082045e-09
      z: 0.0006303209708313296
      w: 0.9999998013477164
  covariance:
  - 1.0e-05
  - 0.0
  - 0.0
  - 0.0
  - 0.0
  - 0.0
  - 0.0
  - 1.0e-05
  - 0.0
  - 0.0
  - 0.0
  - 0.0
  - 0.0
  - 0.0
  - 1000000000000.0
  - 0.0
  - 0.0
  - 0.0
  - 0.0
  - 0.0
  - 0.0
  - 1000000000000.0
  - 0.0
  - 0.0
  - 0.0
  - 0.0
  - 0.0
  - 0.0
  - 1000000000000.0
  - 0.0
  - 0.0
  - 0.0
  - 0.0
  - 0.0
  - 0.0
  - 0.001
twist:
  twist:
    linear:
      x: -4.720196898121428e-10
      y: -6.471625599074374e-09
      z: 0.0
    angular:
      x: 0.0
      y: 0.0
      z: -6.61467162954009e-08
  covariance:
  - 1.0e-05
  - 0.0
  - 0.0
  - 0.0
  - 0.0
  - 0.0
  - 0.0
  - 1.0e-05
  - 0.0
  - 0.0
  - 0.0
  - 0.0
  - 0.0
  - 0.0
  - 1000000000000.0
  - 0.0
  - 0.0
  - 0.0
  - 0.0
  - 0.0
  - 0.0
  - 1000000000000.0
  - 0.0
  - 0.0
  - 0.0
  - 0.0
  - 0.0
  - 0.0
  - 1000000000000.0
  - 0.0
  - 0.0
  - 0.0
  - 0.0
  - 0.0
  - 0.0
  - 0.001
---
header:
  stamp:
    sec: 206
    nanosec: 706000000
  frame_id: odom
child_frame_id: base_link
pose:
  pose:
    position:
      x: -1.999899447516841
      y: -0.5000168499459645
      z: 0.04999999864200463
    orientation:
      x: -3.97736935467254e-08
      y: 3.4017166747217955e-09
      z: 0.0006303206432224191
      w: 0.999999801347923
  covariance:
  - 1.0e-05
  - 0.0
  - 0.0
  - 0.0
  - 0.0
  - 0.0
  - 0.0
  - 1.0e-05
  - 0.0
  - 0.0
  - 0.0
  - 0.0
  - 0.0
  - 0.0
  - 1000000000000.0
  - 0.0
  - 0.0
  - 0.0
  - 0.0
  - 0.0
  - 0.0
  - 1000000000000.0
  - 0.0
  - 0.0
  - 0.0
  - 0.0
  - 0.0
  - 0.0
  - 1000000000000.0
  - 0.0
  - 0.0
  - 0.0
  - 0.0
  - 0.0
  - 0.0
  - 0.001
twist:
  twist:
    linear:
      x: -4.629879862017623e-10
      y: -6.360618707170345e-09
      z: 0.0
    angular:
      x: 0.0
      y: 0.0
      z: -6.501432177331726e-08
  covariance:
  - 1.0e-05
  - 0.0
  - 0.0
  - 0.0
  - 0.0
  - 0.0
  - 0.0
  - 1.0e-05
  - 0.0
  - 0.0
  - 0.0
  - 0.0
  - 0.0
  - 0.0
  - 1000000000000.0
  - 0.0
  - 0.0
  - 0.0
  - 0.0
  - 0.0
  - 0.0
  - 1000000000000.0
  - 0.0
  - 0.0
  - 0.0
  - 0.0
  - 0.0
  - 0.0
  - 1000000000000.0
  - 0.0
  - 0.0
  - 0.0
  - 0.0
  - 0.0
  - 0.0
  - 0.001
---
header:
  stamp:
    sec: 206
    nanosec: 716000000
  frame_id: odom
child_frame_id: base_link
pose:
  pose:
    position:
      x: -1.999899447521207
      y: -0.500016850008985
      z: 0.04999999865966054
    orientation:
      x: -3.89579939397235e-08
      y: 3.357315430272583e-09
      z: 0.0006303203212181919
      w: 0.9999998013481259
  covariance:
  - 1.0e-05
  - 0.0
  - 0.0
  - 0.0
  - 0.0
  - 0.0
  - 0.0
  - 1.0e-05
  - 0.0
  - 0.0
  - 0.0
  - 0.0
  - 0.0
  - 0.0
  - 1000000000000.0
  - 0.0
  - 0.0
  - 0.0
  - 0.0
  - 0.0
  - 0.0
  - 1000000000000.0
  - 0.0
  - 0.0
  - 0.0
  - 0.0
  - 0.0
  - 0.0
  - 1000000000000.0
  - 0.0
  - 0.0
  - 0.0
  - 0.0
  - 0.0
  - 0.0
  - 0.001
twist:
  twist:
    linear:
      x: -4.541240919304331e-10
      y: -6.251480343770549e-09
      z: 0.0
    angular:
      x: 0.0
      y: 0.0
      z: -6.39024852727054e-08
  covariance:
  - 1.0e-05
  - 0.0
  - 0.0
  - 0.0
  - 0.0
  - 0.0
  - 0.0
  - 1.0e-05
  - 0.0
  - 0.0
  - 0.0
  - 0.0
  - 0.0
  - 0.0
  - 1000000000000.0
  - 0.0
  - 0.0
  - 0.0
  - 0.0
  - 0.0
  - 0.0
  - 1000000000000.0
  - 0.0
  - 0.0
  - 0.0
  - 0.0
  - 0.0
  - 0.0
  - 1000000000000.0
  - 0.0
  - 0.0
  - 0.0
  - 0.0
  - 0.0
  - 0.0
  - 0.001
---
header:
  stamp:
    sec: 206
    nanosec: 726000000
  frame_id: odom
child_frame_id: base_link
pose:
  pose:
    position:
      x: -1.9998994475254868
      y: -0.5000168500709242
      z: 0.04999999867696832
    orientation:
      x: -3.8156249146959175e-08
      y: 3.313790646493086e-09
      z: 0.0006303200047197146
      w: 0.9999998013483254
  covariance:
  - 1.0e-05
  - 0.0
  - 0.0
  - 0.0
  - 0.0
  - 0.0
  - 0.0
  - 1.0e-05
  - 0.0
  - 0.0
  - 0.0
  - 0.0
  - 0.0
  - 0.0
  - 1000000000000.0
  - 0.0
  - 0.0
  - 0.0
  - 0.0
  - 0.0
  - 0.0
  - 1000000000000.0
  - 0.0
  - 0.0
  - 0.0
  - 0.0
  - 0.0
  - 0.0
  - 1000000000000.0
  - 0.0
  - 0.0
  - 0.0
  - 0.0
  - 0.0
  - 0.0
  - 0.001
twist:
  twist:
    linear:
      x: -4.4542653506571273e-10
      y: -6.1442083882026894e-09
      z: 0.0
    angular:
      x: 0.0
      y: 0.0
      z: -6.280996089300576e-08
  covariance:
  - 1.0e-05
  - 0.0
  - 0.0
  - 0.0
  - 0.0
  - 0.0
  - 0.0
  - 1.0e-05
  - 0.0
  - 0.0
  - 0.0
  - 0.0
  - 0.0
  - 0.0
  - 1000000000000.0
  - 0.0
  - 0.0
  - 0.0
  - 0.0
  - 0.0
  - 0.0
  - 1000000000000.0
  - 0.0
  - 0.0
  - 0.0
  - 0.0
  - 0.0
  - 0.0
  - 1000000000000.0
  - 0.0
  - 0.0
  - 0.0
  - 0.0
  - 0.0
  - 0.0
  - 0.001
---
header:
  stamp:
    sec: 206
    nanosec: 736000000
  frame_id: odom
child_frame_id: base_link
pose:
  pose:
    position:
      x: -1.999899447529682
      y: -0.5000168501318006
      z: 0.049999998693934865
    orientation:
      x: -3.736822200289059e-08
      y: 3.2711252606542093e-09
      z: 0.0006303196936322202
      w: 0.9999998013485215
  covariance:
  - 1.0e-05
  - 0.0
  - 0.0
  - 0.0
  - 0.0
  - 0.0
  - 0.0
  - 1.0e-05
  - 0.0
  - 0.0
  - 0.0
  - 0.0
  - 0.0
  - 0.0
  - 1000000000000.0
  - 0.0
  - 0.0
  - 0.0
  - 0.0
  - 0.0
  - 0.0
  - 1000000000000.0
  - 0.0
  - 0.0
  - 0.0
  - 0.0
  - 0.0
  - 0.0
  - 1000000000000.0
  - 0.0
  - 0.0
  - 0.0
  - 0.0
  - 0.0
  - 0.0
  - 0.001
twist:
  twist:
    linear:
      x: -4.36901940717527e-10
      y: -6.03877340629763e-09
      z: 0.0
    angular:
      x: 0.0
      y: 0.0
      z: -6.173614037837063e-08
  covariance:
  - 1.0e-05
  - 0.0
  - 0.0
  - 0.0
  - 0.0
  - 0.0
  - 0.0
  - 1.0e-05
  - 0.0
  - 0.0
  - 0.0
  - 0.0
  - 0.0
  - 0.0
  - 1000000000000.0
  - 0.0
  - 0.0
  - 0.0
  - 0.0
  - 0.0
  - 0.0
  - 1000000000000.0
  - 0.0
  - 0.0
  - 0.0
  - 0.0
  - 0.0
  - 0.0
  - 1000000000000.0
  - 0.0
  - 0.0
  - 0.0
  - 0.0
  - 0.0
  - 0.0
  - 0.001
---
header:
  stamp:
    sec: 206
    nanosec: 746000000
  frame_id: odom
child_frame_id: base_link
pose:
  pose:
    position:
      x: -1.9998994475337941
      y: -0.5000168501916331
      z: 0.049999998710566915
    orientation:
      x: -3.6593678762510666e-08
      y: 3.229302355827118e-09
      z: 0.000630319387863368
      w: 0.9999998013487142
  covariance:
  - 1.0e-05
  - 0.0
  - 0.0
  - 0.0
  - 0.0
  - 0.0
  - 0.0
  - 1.0e-05
  - 0.0
  - 0.0
  - 0.0
  - 0.0
  - 0.0
  - 0.0
  - 1000000000000.0
  - 0.0
  - 0.0
  - 0.0
  - 0.0
  - 0.0
  - 0.0
  - 1000000000000.0
  - 0.0
  - 0.0
  - 0.0
  - 0.0
  - 0.0
  - 0.0
  - 1000000000000.0
  - 0.0
  - 0.0
  - 0.0
  - 0.0
  - 0.0
  - 0.0
  - 0.001
twist:
  twist:
    linear:
      x: -4.285431674743436e-10
      y: -5.935143008285973e-09
      z: 0.0
    angular:
      x: 0.0
      y: 0.0
      z: -6.068061403375198e-08
  covariance:
  - 1.0e-05
  - 0.0
  - 0.0
  - 0.0
  - 0.0
  - 0.0
  - 0.0
  - 1.0e-05
  - 0.0
  - 0.0
  - 0.0
  - 0.0
  - 0.0
  - 0.0
  - 1000000000000.0
  - 0.0
  - 0.0
  - 0.0
  - 0.0
  - 0.0
  - 0.0
  - 1000000000000.0
  - 0.0
  - 0.0
  - 0.0
  - 0.0
  - 0.0
  - 0.0
  - 1000000000000.0
  - 0.0
  - 0.0
  - 0.0
  - 0.0
  - 0.0
  - 0.0
  - 0.001
---
header:
  stamp:
    sec: 206
    nanosec: 756000000
  frame_id: odom
child_frame_id: base_link
pose:
  pose:
    position:
      x: -1.999899447537825
      y: -0.5000168502504387
      z: 0.04999999872687101
    orientation:
      x: -3.583238943034576e-08
      y: 3.188305341945216e-09
      z: 0.000630319087322601
      w: 0.9999998013489038
  covariance:
  - 1.0e-05
  - 0.0
  - 0.0
  - 0.0
  - 0.0
  - 0.0
  - 0.0
  - 1.0e-05
  - 0.0
  - 0.0
  - 0.0
  - 0.0
  - 0.0
  - 0.0
  - 1000000000000.0
  - 0.0
  - 0.0
  - 0.0
  - 0.0
  - 0.0
  - 0.0
  - 1000000000000.0
  - 0.0
  - 0.0
  - 0.0
  - 0.0
  - 0.0
  - 0.0
  - 1000000000000.0
  - 0.0
  - 0.0
  - 0.0
  - 0.0
  - 0.0
  - 0.0
  - 0.001
twist:
  twist:
    linear:
      x: -4.203532400216824e-10
      y: -5.8332860786669676e-09
      z: 0.0
    angular:
      x: 0.0
      y: 0.0
      z: -5.96430553041647e-08
  covariance:
  - 1.0e-05
  - 0.0
  - 0.0
  - 0.0
  - 0.0
  - 0.0
  - 0.0
  - 1.0e-05
  - 0.0
  - 0.0
  - 0.0
  - 0.0
  - 0.0
  - 0.0
  - 1000000000000.0
  - 0.0
  - 0.0
  - 0.0
  - 0.0
  - 0.0
  - 0.0
  - 1000000000000.0
  - 0.0
  - 0.0
  - 0.0
  - 0.0
  - 0.0
  - 0.0
  - 1000000000000.0
  - 0.0
  - 0.0
  - 0.0
  - 0.0
  - 0.0
  - 0.0
  - 0.001
---
header:
  stamp:
    sec: 206
    nanosec: 756000000
  frame_id: odom
child_frame_id: base_link
pose:
  pose:
    position:
      x: -5.282967999680845
      y: 5.302797681395248
      z: 0.0
    orientation:
      x: 0.0
      y: 0.0
      z: 0.0006303574350967775
      w: 0.9999998013247323
  covariance:
  - 73322.88164094098
  - 3.6157842382582536e-13
  - 0.0
  - 0.0
  - 0.0
  - -4.969767484807687e-19
  - 1.0611988366530934e-12
  - 73322.88164094098
  - 0.0
  - 0.0
  - 0.0
  - -3.730132496675386e-19
  - 0.0
  - 0.0
  - 3.329639879152383e-07
  - 1.8211346674614941e-16
  - 1.3632990317377436e-16
  - 0.0
  - 0.0
  - 0.0
  - 1.8211346674614941e-16
  - 3.32596677056708e-07
  - -6.722103963391384e-23
  - 0.0
  - 0.0
  - 0.0
  - 1.3632990317377434e-16
  - -6.722103963428645e-23
  - 3.325966770567081e-07
  - 0.0
  - -4.969767484807687e-19
  - -3.730132496675386e-19
  - 0.0
  - 0.0
  - 0.0
  - 9.999966666889e-10
twist:
  twist:
    linear:
      x: -0.02231934174998706
      y: 0.029681079818504697
      z: 0.0
    angular:
      x: 0.0
      y: 0.0
      z: 0.0002942119538034932
  covariance:
  - 5.161667789181105
  - 0.0
  - 0.0
  - 0.0
  - 0.0
  - 0.0
  - 0.0
  - 5.161667789181105
  - 0.0
  - 0.0
  - 0.0
  - 0.0
  - 0.0
  - 0.0
  - 3.327800795951031e-07
  - 1.0906247962385421e-25
  - 8.164403213442204e-26
  - 0.0
  - 0.0
  - 0.0
  - 1.0906247962385426e-25
  - 3.311473301608367e-07
  - -1.5636845330176742e-31
  - 0.0
  - 0.0
  - 0.0
  - 8.164403213442206e-26
  - -1.5636845330257965e-31
  - 3.311473301608367e-07
  - 0.0
  - 0.0
  - 0.0
  - 0.0
  - 0.0
  - 0.0
  - 3.99840127872143e-08
---
header:
  stamp:
    sec: 206
    nanosec: 766000000
  frame_id: odom
child_frame_id: base_link
pose:
  pose:
    position:
      x: -1.9998994475417757
      y: -0.5000168503082354
      z: 0.049999998742853664
    orientation:
      x: -3.5084127677653604e-08
      y: 3.1481179155359634e-09
      z: 0.0006303187919209911
      w: 0.99999980134909
  covariance:
  - 1.0e-05
  - 0.0
  - 0.0
  - 0.0
  - 0.0
  - 0.0
  - 0.0
  - 1.0e-05
  - 0.0
  - 0.0
  - 0.0
  - 0.0
  - 0.0
  - 0.0
  - 1000000000000.0
  - 0.0
  - 0.0
  - 0.0
  - 0.0
  - 0.0
  - 0.0
  - 1000000000000.0
  - 0.0
  - 0.0
  - 0.0
  - 0.0
  - 0.0
  - 0.0
  - 1000000000000.0
  - 0.0
  - 0.0
  - 0.0
  - 0.0
  - 0.0
  - 0.0
  - 0.001
twist:
  twist:
    linear:
      x: -4.123224387082427e-10
      y: -5.7331776591967375e-09
      z: 0.0
    angular:
      x: 0.0
      y: 0.0
      z: -5.8623136662432623e-08
  covariance:
  - 1.0e-05
  - 0.0
  - 0.0
  - 0.0
  - 0.0
  - 0.0
  - 0.0
  - 1.0e-05
  - 0.0
  - 0.0
  - 0.0
  - 0.0
  - 0.0
  - 0.0
  - 1000000000000.0
  - 0.0
  - 0.0
  - 0.0
  - 0.0
  - 0.0
  - 0.0
  - 1000000000000.0
  - 0.0
  - 0.0
  - 0.0
  - 0.0
  - 0.0
  - 0.0
  - 1000000000000.0
  - 0.0
  - 0.0
  - 0.0
  - 0.0
  - 0.0
  - 0.0
  - 0.001
---
header:
  stamp:
    sec: 206
    nanosec: 776000000
  frame_id: odom
child_frame_id: base_link
pose:
  pose:
    position:
      x: -1.9998994475456482
      y: -0.5000168503650403
      z: 0.04999999875852118
    orientation:
      x: -3.434867127963346e-08
      y: 3.1087240887174145e-09
      z: 0.0006303185015711685
      w: 0.999999801349273
  covariance:
  - 1.0e-05
  - 0.0
  - 0.0
  - 0.0
  - 0.0
  - 0.0
  - 0.0
  - 1.0e-05
  - 0.0
  - 0.0
  - 0.0
  - 0.0
  - 0.0
  - 0.0
  - 1000000000000.0
  - 0.0
  - 0.0
  - 0.0
  - 0.0
  - 0.0
  - 0.0
  - 1000000000000.0
  - 0.0
  - 0.0
  - 0.0
  - 0.0
  - 0.0
  - 0.0
  - 1000000000000.0
  - 0.0
  - 0.0
  - 0.0
  - 0.0
  - 0.0
  - 0.0
  - 0.001
twist:
  twist:
    linear:
      x: -4.0444854875959065e-10
      y: -5.634783720465259e-09
      z: 0.0
    angular:
      x: 0.0
      y: 0.0
      z: -5.762055908342644e-08
  covariance:
  - 1.0e-05
  - 0.0
  - 0.0
  - 0.0
  - 0.0
  - 0.0
  - 0.0
  - 1.0e-05
  - 0.0
  - 0.0
  - 0.0
  - 0.0
  - 0.0
  - 0.0
  - 1000000000000.0
  - 0.0
  - 0.0
  - 0.0
  - 0.0
  - 0.0
  - 0.0
  - 1000000000000.0
  - 0.0
  - 0.0
  - 0.0
  - 0.0
  - 0.0
  - 0.0
  - 1000000000000.0
  - 0.0
  - 0.0
  - 0.0
  - 0.0
  - 0.0
  - 0.0
  - 0.001
---
header:
  stamp:
    sec: 206
    nanosec: 786000000
  frame_id: odom
child_frame_id: base_link
pose:
  pose:
    position:
      x: -1.9998994475494443
      y: -0.5000168504208706
      z: 0.04999999877387978
    orientation:
      x: -3.362580156411672e-08
      y: 3.070108229723314e-09
      z: 0.0006303182161872227
      w: 0.9999998013494529
  covariance:
  - 1.0e-05
  - 0.0
  - 0.0
  - 0.0
  - 0.0
  - 0.0
  - 0.0
  - 1.0e-05
  - 0.0
  - 0.0
  - 0.0
  - 0.0
  - 0.0
  - 0.0
  - 1000000000000.0
  - 0.0
  - 0.0
  - 0.0
  - 0.0
  - 0.0
  - 0.0
  - 1000000000000.0
  - 0.0
  - 0.0
  - 0.0
  - 0.0
  - 0.0
  - 0.0
  - 1000000000000.0
  - 0.0
  - 0.0
  - 0.0
  - 0.0
  - 0.0
  - 0.0
  - 0.001
twist:
  twist:
    linear:
      x: -3.967323892105581e-10
      y: -5.5380789536051576e-09
      z: 0.0
    angular:
      x: 0.0
      y: 0.0
      z: -5.6635031487584005e-08
  covariance:
  - 1.0e-05
  - 0.0
  - 0.0
  - 0.0
  - 0.0
  - 0.0
  - 0.0
  - 1.0e-05
  - 0.0
  - 0.0
  - 0.0
  - 0.0
  - 0.0
  - 0.0
  - 1000000000000.0
  - 0.0
  - 0.0
  - 0.0
  - 0.0
  - 0.0
  - 0.0
  - 1000000000000.0
  - 0.0
  - 0.0
  - 0.0
  - 0.0
  - 0.0
  - 0.0
  - 1000000000000.0
  - 0.0
  - 0.0
  - 0.0
  - 0.0
  - 0.0
  - 0.0
  - 0.001
---
header:
  stamp:
    sec: 206
    nanosec: 796000000
  frame_id: odom
child_frame_id: base_link
pose:
  pose:
    position:
      x: -1.9998994475531648
      y: -0.500016850475743
      z: 0.04999999878893557
    orientation:
      x: -3.291530386471955e-08
      y: 3.0322549230326333e-09
      z: 0.0006303179356847038
      w: 0.9999998013496297
  covariance:
  - 1.0e-05
  - 0.0
  - 0.0
  - 0.0
  - 0.0
  - 0.0
  - 0.0
  - 1.0e-05
  - 0.0
  - 0.0
  - 0.0
  - 0.0
  - 0.0
  - 0.0
  - 1000000000000.0
  - 0.0
  - 0.0
  - 0.0
  - 0.0
  - 0.0
  - 0.0
  - 1000000000000.0
  - 0.0
  - 0.0
  - 0.0
  - 0.0
  - 0.0
  - 0.0
  - 1000000000000.0
  - 0.0
  - 0.0
  - 0.0
  - 0.0
  - 0.0
  - 0.0
  - 0.001
twist:
  twist:
    linear:
      x: -3.89169468244468e-10
      y: -5.443026305660725e-09
      z: 0.0
    angular:
      x: 0.0
      y: 0.0
      z: -5.5666261793096573e-08
  covariance:
  - 1.0e-05
  - 0.0
  - 0.0
  - 0.0
  - 0.0
  - 0.0
  - 0.0
  - 1.0e-05
  - 0.0
  - 0.0
  - 0.0
  - 0.0
  - 0.0
  - 0.0
  - 1000000000000.0
  - 0.0
  - 0.0
  - 0.0
  - 0.0
  - 0.0
  - 0.0
  - 1000000000000.0
  - 0.0
  - 0.0
  - 0.0
  - 0.0
  - 0.0
  - 0.0
  - 1000000000000.0
  - 0.0
  - 0.0
  - 0.0
  - 0.0
  - 0.0
  - 0.0
  - 0.001
---
header:
  stamp:
    sec: 206
    nanosec: 806000000
  frame_id: odom
child_frame_id: base_link
pose:
  pose:
    position:
      x: -1.9998994475568117
      y: -0.5000168505296736
      z: 0.049999998803694476
    orientation:
      x: -3.221696677547838e-08
      y: 2.9951491853431173e-09
      z: 0.000630317659980601
      w: 0.9999998013498037
  covariance:
  - 1.0e-05
  - 0.0
  - 0.0
  - 0.0
  - 0.0
  - 0.0
  - 0.0
  - 1.0e-05
  - 0.0
  - 0.0
  - 0.0
  - 0.0
  - 0.0
  - 0.0
  - 1000000000000.0
  - 0.0
  - 0.0
  - 0.0
  - 0.0
  - 0.0
  - 0.0
  - 1000000000000.0
  - 0.0
  - 0.0
  - 0.0
  - 0.0
  - 0.0
  - 0.0
  - 1000000000000.0
  - 0.0
  - 0.0
  - 0.0
  - 0.0
  - 0.0
  - 0.0
  - 0.001
twist:
  twist:
    linear:
      x: -3.817515429234811e-10
      y: -5.349604987743599e-09
      z: 0.0
    angular:
      x: 0.0
      y: 0.0
      z: -5.471396997315721e-08
  covariance:
  - 1.0e-05
  - 0.0
  - 0.0
  - 0.0
  - 0.0
  - 0.0
  - 0.0
  - 1.0e-05
  - 0.0
  - 0.0
  - 0.0
  - 0.0
  - 0.0
  - 0.0
  - 1000000000000.0
  - 0.0
  - 0.0
  - 0.0
  - 0.0
  - 0.0
  - 0.0
  - 1000000000000.0
  - 0.0
  - 0.0
  - 0.0
  - 0.0
  - 0.0
  - 0.0
  - 1000000000000.0
  - 0.0
  - 0.0
  - 0.0
  - 0.0
  - 0.0
  - 0.0
  - 0.001
---
header:
  stamp:
    sec: 206
    nanosec: 816000000
  frame_id: odom
child_frame_id: base_link
pose:
  pose:
    position:
      x: -1.9998994475603868
      y: -0.5000168505826792
      z: 0.04999999881816242
    orientation:
      x: -3.1530582824053425e-08
      y: 2.958776239133215e-09
      z: 0.0006303173889933093
      w: 0.9999998013499743
  covariance:
  - 1.0e-05
  - 0.0
  - 0.0
  - 0.0
  - 0.0
  - 0.0
  - 0.0
  - 1.0e-05
  - 0.0
  - 0.0
  - 0.0
  - 0.0
  - 0.0
  - 0.0
  - 1000000000000.0
  - 0.0
  - 0.0
  - 0.0
  - 0.0
  - 0.0
  - 0.0
  - 1000000000000.0
  - 0.0
  - 0.0
  - 0.0
  - 0.0
  - 0.0
  - 0.0
  - 1000000000000.0
  - 0.0
  - 0.0
  - 0.0
  - 0.0
  - 0.0
  - 0.0
  - 0.001
twist:
  twist:
    linear:
      x: -3.744814341616256e-10
      y: -5.2577850790893795e-09
      z: 0.0
    angular:
      x: 0.0
      y: 0.0
      z: -5.377787266325421e-08
  covariance:
  - 1.0e-05
  - 0.0
  - 0.0
  - 0.0
  - 0.0
  - 0.0
  - 0.0
  - 1.0e-05
  - 0.0
  - 0.0
  - 0.0
  - 0.0
  - 0.0
  - 0.0
  - 1000000000000.0
  - 0.0
  - 0.0
  - 0.0
  - 0.0
  - 0.0
  - 0.0
  - 1000000000000.0
  - 0.0
  - 0.0
  - 0.0
  - 0.0
  - 0.0
  - 0.0
  - 1000000000000.0
  - 0.0
  - 0.0
  - 0.0
  - 0.0
  - 0.0
  - 0.0
  - 0.001
---
header:
  stamp:
    sec: 206
    nanosec: 826000000
  frame_id: odom
child_frame_id: base_link
pose:
  pose:
    position:
      x: -1.999899447563891
      y: -0.500016850634775
      z: 0.04999999883234507
    orientation:
      x: -3.0855947904602e-08
      y: 2.9231216008239284e-09
      z: 0.0006303171226425987
      w: 0.9999998013501424
  covariance:
  - 1.0e-05
  - 0.0
  - 0.0
  - 0.0
  - 0.0
  - 0.0
  - 0.0
  - 1.0e-05
  - 0.0
  - 0.0
  - 0.0
  - 0.0
  - 0.0
  - 0.0
  - 1000000000000.0
  - 0.0
  - 0.0
  - 0.0
  - 0.0
  - 0.0
  - 0.0
  - 1000000000000.0
  - 0.0
  - 0.0
  - 0.0
  - 0.0
  - 0.0
  - 0.0
  - 1000000000000.0
  - 0.0
  - 0.0
  - 0.0
  - 0.0
  - 0.0
  - 0.0
  - 0.001
twist:
  twist:
    linear:
      x: -3.673555819925205e-10
      y: -5.167540724560013e-09
      z: 0.0
    angular:
      x: 0.0
      y: 0.0
      z: -5.2857698643030295e-08
  covariance:
  - 1.0e-05
  - 0.0
  - 0.0
  - 0.0
  - 0.0
  - 0.0
  - 0.0
  - 1.0e-05
  - 0.0
  - 0.0
  - 0.0
  - 0.0
  - 0.0
  - 0.0
  - 1000000000000.0
  - 0.0
  - 0.0
  - 0.0
  - 0.0
  - 0.0
  - 0.0
  - 1000000000000.0
  - 0.0
  - 0.0
  - 0.0
  - 0.0
  - 0.0
  - 0.0
  - 1000000000000.0
  - 0.0
  - 0.0
  - 0.0
  - 0.0
  - 0.0
  - 0.0
  - 0.001
---
header:
  stamp:
    sec: 206
    nanosec: 836000000
  frame_id: odom
child_frame_id: base_link
pose:
  pose:
    position:
      x: -1.9998994475673255
      y: -0.5000168506859768
      z: 0.049999998846248075
    orientation:
      x: -3.019286140300734e-08
      y: 2.888171090869991e-09
      z: 0.000630316860849614
      w: 0.9999998013503073
  covariance:
  - 1.0e-05
  - 0.0
  - 0.0
  - 0.0
  - 0.0
  - 0.0
  - 0.0
  - 1.0e-05
  - 0.0
  - 0.0
  - 0.0
  - 0.0
  - 0.0
  - 0.0
  - 1000000000000.0
  - 0.0
  - 0.0
  - 0.0
  - 0.0
  - 0.0
  - 0.0
  - 1000000000000.0
  - 0.0
  - 0.0
  - 0.0
  - 0.0
  - 0.0
  - 0.0
  - 1000000000000.0
  - 0.0
  - 0.0
  - 0.0
  - 0.0
  - 0.0
  - 0.0
  - 0.001
twist:
  twist:
    linear:
      x: -3.603704017229641e-10
      y: -5.078841406198115e-09
      z: 0.0
    angular:
      x: 0.0
      y: 0.0
      z: -5.1953173636713986e-08
  covariance:
  - 1.0e-05
  - 0.0
  - 0.0
  - 0.0
  - 0.0
  - 0.0
  - 0.0
  - 1.0e-05
  - 0.0
  - 0.0
  - 0.0
  - 0.0
  - 0.0
  - 0.0
  - 1000000000000.0
  - 0.0
  - 0.0
  - 0.0
  - 0.0
  - 0.0
  - 0.0
  - 1000000000000.0
  - 0.0
  - 0.0
  - 0.0
  - 0.0
  - 0.0
  - 0.0
  - 1000000000000.0
  - 0.0
  - 0.0
  - 0.0
  - 0.0
  - 0.0
  - 0.0
  - 0.001
---
header:
  stamp:
    sec: 206
    nanosec: 846000000
  frame_id: odom
child_frame_id: base_link
pose:
  pose:
    position:
      x: -1.9998994475706922
      y: -0.5000168507363001
      z: 0.049999998859876944
    orientation:
      x: -2.9541126183230988e-08
      y: 2.8539108370751883e-09
      z: 0.0006303166035368182
      w: 0.9999998013504696
  covariance:
  - 1.0e-05
  - 0.0
  - 0.0
  - 0.0
  - 0.0
  - 0.0
  - 0.0
  - 1.0e-05
  - 0.0
  - 0.0
  - 0.0
  - 0.0
  - 0.0
  - 0.0
  - 1000000000000.0
  - 0.0
  - 0.0
  - 0.0
  - 0.0
  - 0.0
  - 0.0
  - 1000000000000.0
  - 0.0
  - 0.0
  - 0.0
  - 0.0
  - 0.0
  - 0.0
  - 1000000000000.0
  - 0.0
  - 0.0
  - 0.0
  - 0.0
  - 0.0
  - 0.0
  - 0.001
twist:
  twist:
    linear:
      x: -3.535230269988756e-10
      y: -4.991665682527245e-09
      z: 0.0
    angular:
      x: 0.0
      y: 0.0
      z: -5.1064038332082005e-08
  covariance:
  - 1.0e-05
  - 0.0
  - 0.0
  - 0.0
  - 0.0
  - 0.0
  - 0.0
  - 1.0e-05
  - 0.0
  - 0.0
  - 0.0
  - 0.0
  - 0.0
  - 0.0
  - 1000000000000.0
  - 0.0
  - 0.0
  - 0.0
  - 0.0
  - 0.0
  - 0.0
  - 1000000000000.0
  - 0.0
  - 0.0
  - 0.0
  - 0.0
  - 0.0
  - 0.0
  - 1000000000000.0
  - 0.0
  - 0.0
  - 0.0
  - 0.0
  - 0.0
  - 0.0
  - 0.001
---
header:
  stamp:
    sec: 206
    nanosec: 841000000
  frame_id: odom
child_frame_id: base_link
pose:
  pose:
    position:
      x: -5.28486723185204
      y: 5.305302305197966
      z: 0.0
    orientation:
      x: 0.0
      y: 0.0
      z: 0.0006303550566991049
      w: 0.9999998013262316
  covariance:
  - 73413.4883650449
  - 3.6071492953863693e-13
  - 0.0
  - 0.0
  - 0.0
  - -4.849420316871129e-19
  - 1.0626226466249788e-12
  - 73413.4883650449
  - 0.0
  - 0.0
  - 0.0
  - -3.755457114874569e-19
  - 0.0
  - 0.0
  - 3.329639879146743e-07
  - 1.777080395199508e-16
  - 1.3726150699706485e-16
  - 0.0
  - 0.0
  - 0.0
  - 1.7770803951995084e-16
  - 3.32596677047819e-07
  - -6.604276519258089e-23
  - 0.0
  - 0.0
  - 0.0
  - 1.3726150699706487e-16
  - -6.60427651925703e-23
  - 3.32596677047819e-07
  - 0.0
  - -4.849420316871128e-19
  - -3.7554571148745696e-19
  - 0.0
  - 0.0
  - 0.0
  - 9.999966666889e-10
twist:
  twist:
    linear:
      x: -0.022422452016638898
      y: 0.029219287108304418
      z: 0.0
    angular:
      x: 0.0
      y: 0.0
      z: -0.00028006178720407364
  covariance:
  - 5.163793022507724
  - 0.0
  - 0.0
  - 0.0
  - 0.0
  - 0.0
  - 0.0
  - 5.163793022507724
  - 0.0
  - 0.0
  - 0.0
  - 0.0
  - 0.0
  - 0.0
  - 3.3278007959227033e-07
  - 1.0676265003129201e-25
  - 8.246335668266604e-26
  - 0.0
  - 0.0
  - 0.0
  - 1.0676265003129201e-25
  - 3.3114732948085684e-07
  - -1.5459495871145892e-31
  - 0.0
  - 0.0
  - 0.0
  - 8.246335668266604e-26
  - -1.5459495871143243e-31
  - 3.3114732948085684e-07
  - 0.0
  - 0.0
  - 0.0
  - 0.0
  - 0.0
  - 0.0
  - 3.99840127872143e-08
---
header:
  stamp:
    sec: 206
    nanosec: 856000000
  frame_id: odom
child_frame_id: base_link
pose:
  pose:
    position:
      x: -1.9998994475739922
      y: -0.50001685078576
      z: 0.0499999988732371
    orientation:
      x: -2.8900548493487592e-08
      y: 2.8203271918668685e-09
      z: 0.0006303163506280057
      w: 0.9999998013506289
  covariance:
  - 1.0e-05
  - 0.0
  - 0.0
  - 0.0
  - 0.0
  - 0.0
  - 0.0
  - 1.0e-05
  - 0.0
  - 0.0
  - 0.0
  - 0.0
  - 0.0
  - 0.0
  - 1000000000000.0
  - 0.0
  - 0.0
  - 0.0
  - 0.0
  - 0.0
  - 0.0
  - 1000000000000.0
  - 0.0
  - 0.0
  - 0.0
  - 0.0
  - 0.0
  - 0.0
  - 1000000000000.0
  - 0.0
  - 0.0
  - 0.0
  - 0.0
  - 0.0
  - 0.0
  - 0.001
twist:
  twist:
    linear:
      x: -3.4680943883265496e-10
      y: -4.905982400586488e-09
      z: 0.0
    angular:
      x: 0.0
      y: 0.0
      z: -5.019002648843182e-08
  covariance:
  - 1.0e-05
  - 0.0
  - 0.0
  - 0.0
  - 0.0
  - 0.0
  - 0.0
  - 1.0e-05
  - 0.0
  - 0.0
  - 0.0
  - 0.0
  - 0.0
  - 0.0
  - 1000000000000.0
  - 0.0
  - 0.0
  - 0.0
  - 0.0
  - 0.0
  - 0.0
  - 1000000000000.0
  - 0.0
  - 0.0
  - 0.0
  - 0.0
  - 0.0
  - 0.0
  - 1000000000000.0
  - 0.0
  - 0.0
  - 0.0
  - 0.0
  - 0.0
  - 0.0
  - 0.001
---
header:
  stamp:
    sec: 206
    nanosec: 866000000
  frame_id: odom
child_frame_id: base_link
pose:
  pose:
    position:
      x: -1.999899447577227
      y: -0.500016850834371
      z: 0.049999998886333795
    orientation:
      x: -2.8270937667680512e-08
      y: 2.787406778970951e-09
      z: 0.0006303161020482582
      w: 0.9999998013507857
  covariance:
  - 1.0e-05
  - 0.0
  - 0.0
  - 0.0
  - 0.0
  - 0.0
  - 0.0
  - 1.0e-05
  - 0.0
  - 0.0
  - 0.0
  - 0.0
  - 0.0
  - 0.0
  - 1000000000000.0
  - 0.0
  - 0.0
  - 0.0
  - 0.0
  - 0.0
  - 0.0
  - 1000000000000.0
  - 0.0
  - 0.0
  - 0.0
  - 0.0
  - 0.0
  - 0.0
  - 1000000000000.0
  - 0.0
  - 0.0
  - 0.0
  - 0.0
  - 0.0
  - 0.0
  - 0.001
twist:
  twist:
    linear:
      x: -3.4023061914773684e-10
      y: -4.821769439392904e-09
      z: 0.0
    angular:
      x: 0.0
      y: 0.0
      z: -4.933088292177364e-08
  covariance:
  - 1.0e-05
  - 0.0
  - 0.0
  - 0.0
  - 0.0
  - 0.0
  - 0.0
  - 1.0e-05
  - 0.0
  - 0.0
  - 0.0
  - 0.0
  - 0.0
  - 0.0
  - 1000000000000.0
  - 0.0
  - 0.0
  - 0.0
  - 0.0
  - 0.0
  - 0.0
  - 1000000000000.0
  - 0.0
  - 0.0
  - 0.0
  - 0.0
  - 0.0
  - 0.0
  - 1000000000000.0
  - 0.0
  - 0.0
  - 0.0
  - 0.0
  - 0.0
  - 0.0
  - 0.001
---
header:
  stamp:
    sec: 206
    nanosec: 876000000
  frame_id: odom
child_frame_id: base_link
pose:
  pose:
    position:
      x: -1.9998994475803973
      y: -0.5000168508821478
      z: 0.049999998899172275
    orientation:
      x: -2.7652106394588352e-08
      y: 2.755136575031329e-09
      z: 0.0006303158577239166
      w: 0.9999998013509398
  covariance:
  - 1.0e-05
  - 0.0
  - 0.0
  - 0.0
  - 0.0
  - 0.0
  - 0.0
  - 1.0e-05
  - 0.0
  - 0.0
  - 0.0
  - 0.0
  - 0.0
  - 0.0
  - 1000000000000.0
  - 0.0
  - 0.0
  - 0.0
  - 0.0
  - 0.0
  - 0.0
  - 1000000000000.0
  - 0.0
  - 0.0
  - 0.0
  - 0.0
  - 0.0
  - 0.0
  - 1000000000000.0
  - 0.0
  - 0.0
  - 0.0
  - 0.0
  - 0.0
  - 0.0
  - 0.001
twist:
  twist:
    linear:
      x: -3.337826598724416e-10
      y: -4.738999547433459e-09
      z: 0.0
    angular:
      x: 0.0
      y: 0.0
      z: -4.848635836364016e-08
  covariance:
  - 1.0e-05
  - 0.0
  - 0.0
  - 0.0
  - 0.0
  - 0.0
  - 0.0
  - 1.0e-05
  - 0.0
  - 0.0
  - 0.0
  - 0.0
  - 0.0
  - 0.0
  - 1000000000000.0
  - 0.0
  - 0.0
  - 0.0
  - 0.0
  - 0.0
  - 0.0
  - 1000000000000.0
  - 0.0
  - 0.0
  - 0.0
  - 0.0
  - 0.0
  - 0.0
  - 1000000000000.0
  - 0.0
  - 0.0
  - 0.0
  - 0.0
  - 0.0
  - 0.0
  - 0.001
---
header:
  stamp:
    sec: 206
    nanosec: 886000000
  frame_id: odom
child_frame_id: base_link
pose:
  pose:
    position:
      x: -1.9998994475835055
      y: -0.5000168509291045
      z: 0.049999998911757604
    orientation:
      x: -2.7043870645914654e-08
      y: 2.7235037103343966e-09
      z: 0.000630315617582581
      w: 0.9999998013510911
  covariance:
  - 1.0e-05
  - 0.0
  - 0.0
  - 0.0
  - 0.0
  - 0.0
  - 0.0
  - 1.0e-05
  - 0.0
  - 0.0
  - 0.0
  - 0.0
  - 0.0
  - 0.0
  - 1000000000000.0
  - 0.0
  - 0.0
  - 0.0
  - 0.0
  - 0.0
  - 0.0
  - 1000000000000.0
  - 0.0
  - 0.0
  - 0.0
  - 0.0
  - 0.0
  - 0.0
  - 1000000000000.0
  - 0.0
  - 0.0
  - 0.0
  - 0.0
  - 0.0
  - 0.0
  - 0.001
twist:
  twist:
    linear:
      x: -3.274582628879215e-10
      y: -4.6576462158503505e-09
      z: 0.0
    angular:
      x: 0.0
      y: 0.0
      z: -4.765620286303197e-08
  covariance:
  - 1.0e-05
  - 0.0
  - 0.0
  - 0.0
  - 0.0
  - 0.0
  - 0.0
  - 1.0e-05
  - 0.0
  - 0.0
  - 0.0
  - 0.0
  - 0.0
  - 0.0
  - 1000000000000.0
  - 0.0
  - 0.0
  - 0.0
  - 0.0
  - 0.0
  - 0.0
  - 1000000000000.0
  - 0.0
  - 0.0
  - 0.0
  - 0.0
  - 0.0
  - 0.0
  - 1000000000000.0
  - 0.0
  - 0.0
  - 0.0
  - 0.0
  - 0.0
  - 0.0
  - 0.001
---
header:
  stamp:
    sec: 206
    nanosec: 906000000
  frame_id: odom
child_frame_id: base_link
pose:
  pose:
    position:
      x: -1.9998994475895377
      y: -0.5000168510206149
      z: 0.04999999893618865
    orientation:
      x: -2.5858465189190902e-08
      y: 2.6620998450369284e-09
      z: 0.0006303151495654198
      w: 0.9999998013513862
  covariance:
  - 1.0e-05
  - 0.0
  - 0.0
  - 0.0
  - 0.0
  - 0.0
  - 0.0
  - 1.0e-05
  - 0.0
  - 0.0
